[
  {
    "TaskCode": "TP-20151231-001",
    "VIN": "1G2NW12E25M200001",
    "RFIDCode": "2234567890001",
    "GPS": "$GPGGA,121252.000,3937.3032,N,11611.6046,E,1,05,2.0,45.9,M,-5.7,M,,0000*77",
    "ScannedOn": "2015-12-09T13:47:30.05",
    "ResultStatus": "InStock",
    "ResultComment": "Car in reseller stock"
  },
  {
    "TaskCode": "TP-20151231-001",
    "VIN": "1G2NW12E25M200002",
    "RFIDCode": "2234567890002",
    "GPS": "$GPGGA,121252.000,3937.3032,N,11611.6046,E,1,05,2.0,45.9,M,-5.7,M,,0000*77",
    "ScannedOn": "2015-12-09T13:47:30.05",
    "ResultStatus": "InStock",
    "ResultComment": "Car in reseller stock"
  },
  {
    "TaskCode": "TP-20151231-001",
    "VIN": "1G2NW12E25M200003",
    "RFIDCode": "2234567890003",
    "GPS": "$GPGGA,121252.000,3937.3032,N,11611.6046,E,1,05,2.0,45.9,M,-5.7,M,,0000*77",
    "ScannedOn": "2015-12-09T13:47:30.05",
    "ResultStatus": "InStock",
    "ResultComment": "Car in reseller stock"
  },
  {
    "TaskCode": "TP-20151231-001",
    "VIN": "1G2NW12E25M200004",
    "RFIDCode": "2234567890004",
    "GPS": "$GPGGA,121252.000,3937.3032,N,11611.6046,E,1,05,2.0,45.9,M,-5.7,M,,0000*77",
    "ScannedOn": "2015-12-09T13:47:30.05",
    "ResultStatus": "InStock",
    "ResultComment": "Car in reseller stock"
  },
  {
    "TaskCode": "TP-20151231-001",
    "VIN": "1G2NW12E25M200005",
    "RFIDCode": "2234567890005",
    "GPS": "$GPGGA,121252.000,3937.3032,N,11611.6046,E,1,05,2.0,45.9,M,-5.7,M,,0000*77",
    "ScannedOn": "2015-12-09T13:47:30.05",
    "ResultStatus": "InStock",
    "ResultComment": "Car in reseller stock"
  },
  {
    "TaskCode": "TP-20151231-001",
    "VIN": "1G2NW12E25M200006",
    "RFIDCode": "2234567890006",
    "GPS": "$GPGGA,121252.000,3937.3032,N,11611.6046,E,1,05,2.0,45.9,M,-5.7,M,,0000*77",
    "ScannedOn": "2015-12-09T13:47:30.05",
    "ResultStatus": "InStock",
    "ResultComment": "Car in reseller stock"
  },
  {
    "TaskCode": "TP-20151231-001",
    "VIN": "1G2NW12E25M200007",
    "RFIDCode": "2234567890007",
    "GPS": "$GPGGA,121252.000,3937.3032,N,11611.6046,E,1,05,2.0,45.9,M,-5.7,M,,0000*77",
    "ScannedOn": "2015-12-09T13:47:30.05",
    "ResultStatus": "InStock",
    "ResultComment": "Car in reseller stock"
  },
  {
    "TaskCode": "TP-20151231-001",
    "VIN": "1G2NW12E25M200008",
    "RFIDCode": "2234567890008",
    "GPS": "$GPGGA,121252.000,3937.3032,N,11611.6046,E,1,05,2.0,45.9,M,-5.7,M,,0000*77",
    "ScannedOn": "2015-12-09T13:47:30.05",
    "ResultStatus": "InStock",
    "ResultComment": "Car in reseller stock"
  },
  {
    "TaskCode": "TP-20151231-001",
    "VIN": "1G2NW12E25M200009",
    "RFIDCode": "2234567890009",
    "GPS": "$GPGGA,121252.000,3937.3032,N,11611.6046,E,1,05,2.0,45.9,M,-5.7,M,,0000*77",
    "ScannedOn": "2015-12-09T13:47:30.05",
    "ResultStatus": "InStock",
    "ResultComment": "Car in reseller stock"
  },
  {
    "TaskCode": "TP-20151231-001",
    "VIN": "1G2NW12E25M200010",
    "RFIDCode": "2234567890010",
    "GPS": "$GPGGA,121252.000,3937.3032,N,11611.6046,E,1,05,2.0,45.9,M,-5.7,M,,0000*77",
    "ScannedOn": "2015-12-09T13:47:30.05",
    "ResultStatus": "InStock",
    "ResultComment": "Car in reseller stock"
  },
  {
    "TaskCode": "TP-20151231-001",
    "VIN": "1G2NW12E25M200011",
    "RFIDCode": "2234567890011",
    "GPS": "$GPGGA,121252.000,3937.3032,N,11611.6046,E,1,05,2.0,45.9,M,-5.7,M,,0000*77",
    "ScannedOn": "2015-12-09T13:47:30.05",
    "ResultStatus": "InStock",
    "ResultComment": "Car in reseller stock"
  },
  {
    "TaskCode": "TP-20151231-001",
    "VIN": "1G2NW12E25M200012",
    "RFIDCode": "2234567890012",
    "GPS": "$GPGGA,121252.000,3937.3032,N,11611.6046,E,1,05,2.0,45.9,M,-5.7,M,,0000*77",
    "ScannedOn": "2015-12-09T13:47:30.05",
    "ResultStatus": "InStock",
    "ResultComment": "Car in reseller stock"
  },
  {
    "TaskCode": "TP-20151231-001",
    "VIN": "1G2NW12E25M200013",
    "RFIDCode": "2234567890013",
    "GPS": "$GPGGA,121252.000,3937.3032,N,11611.6046,E,1,05,2.0,45.9,M,-5.7,M,,0000*77",
    "ScannedOn": "2015-12-09T13:47:30.05",
    "ResultStatus": "InStock",
    "ResultComment": "Car in reseller stock"
  },
  {
    "TaskCode": "TP-20151231-001",
    "VIN": "1G2NW12E25M200014",
    "RFIDCode": "2234567890014",
    "GPS": "$GPGGA,121252.000,3937.3032,N,11611.6046,E,1,05,2.0,45.9,M,-5.7,M,,0000*77",
    "ScannedOn": "2015-12-09T13:47:30.05",
    "ResultStatus": "InStock",
    "ResultComment": "Car in reseller stock"
  },
  {
    "TaskCode": "TP-20151231-001",
    "VIN": "1G2NW12E25M200015",
    "RFIDCode": "2234567890015",
    "GPS": "$GPGGA,121252.000,3937.3032,N,11611.6046,E,1,05,2.0,45.9,M,-5.7,M,,0000*77",
    "ScannedOn": "2015-12-09T13:47:30.05",
    "ResultStatus": "InStock",
    "ResultComment": "Car in reseller stock"
  },
  {
    "TaskCode": "TP-20151231-001",
    "VIN": "1G2NW12E25M200016",
    "RFIDCode": "2234567890016",
    "GPS": "$GPGGA,121252.000,3937.3032,N,11611.6046,E,1,05,2.0,45.9,M,-5.7,M,,0000*77",
    "ScannedOn": "2015-12-09T13:47:30.05",
    "ResultStatus": "InStock",
    "ResultComment": "Car in reseller stock"
  },
  {
    "TaskCode": "TP-20151231-001",
    "VIN": "1G2NW12E25M200017",
    "RFIDCode": "2234567890017",
    "GPS": "$GPGGA,121252.000,3937.3032,N,11611.6046,E,1,05,2.0,45.9,M,-5.7,M,,0000*77",
    "ScannedOn": "2015-12-09T13:47:30.05",
    "ResultStatus": "InStock",
    "ResultComment": "Car in reseller stock"
  },
  {
    "TaskCode": "TP-20151231-001",
    "VIN": "1G2NW12E25M200018",
    "RFIDCode": "2234567890018",
    "GPS": "$GPGGA,121252.000,3937.3032,N,11611.6046,E,1,05,2.0,45.9,M,-5.7,M,,0000*77",
    "ScannedOn": "2015-12-09T13:47:30.05",
    "ResultStatus": "InStock",
    "ResultComment": "Car in reseller stock"
  },
  {
    "TaskCode": "TP-20151231-001",
    "VIN": "1G2NW12E25M200019",
    "RFIDCode": "2234567890019",
    "GPS": "$GPGGA,121252.000,3937.3032,N,11611.6046,E,1,05,2.0,45.9,M,-5.7,M,,0000*77",
    "ScannedOn": "2015-12-09T13:47:30.05",
    "ResultStatus": "InStock",
    "ResultComment": "Car in reseller stock"
  },
  {
    "TaskCode": "TP-20151231-001",
    "VIN": "1G2NW12E25M200020",
    "RFIDCode": "2234567890020",
    "GPS": "$GPGGA,121252.000,3937.3032,N,11611.6046,E,1,05,2.0,45.9,M,-5.7,M,,0000*77",
    "ScannedOn": "2015-12-09T13:47:30.05",
    "ResultStatus": "InStock",
    "ResultComment": "Car in reseller stock"
  },
  {
    "TaskCode": "TP-20151231-001",
    "VIN": "1G2NW12E25M200021",
    "RFIDCode": "2234567890021",
    "GPS": "$GPGGA,121252.000,3937.3032,N,11611.6046,E,1,05,2.0,45.9,M,-5.7,M,,0000*77",
    "ScannedOn": "2015-12-09T13:47:30.05",
    "ResultStatus": "InStock",
    "ResultComment": "Car in reseller stock"
  },
  {
    "TaskCode": "TP-20151231-001",
    "VIN": "1G2NW12E25M200022",
    "RFIDCode": "2234567890022",
    "GPS": "$GPGGA,121252.000,3937.3032,N,11611.6046,E,1,05,2.0,45.9,M,-5.7,M,,0000*77",
    "ScannedOn": "2015-12-09T13:47:30.05",
    "ResultStatus": "InStock",
    "ResultComment": "Car in reseller stock"
  },
  {
    "TaskCode": "TP-20151231-001",
    "VIN": "1G2NW12E25M200023",
    "RFIDCode": "2234567890023",
    "GPS": "$GPGGA,121252.000,3937.3032,N,11611.6046,E,1,05,2.0,45.9,M,-5.7,M,,0000*77",
    "ScannedOn": "2015-12-09T13:47:30.05",
    "ResultStatus": "InStock",
    "ResultComment": "Car in reseller stock"
  },
  {
    "TaskCode": "TP-20151231-001",
    "VIN": "1G2NW12E25M200024",
    "RFIDCode": "2234567890024",
    "GPS": "$GPGGA,121252.000,3937.3032,N,11611.6046,E,1,05,2.0,45.9,M,-5.7,M,,0000*77",
    "ScannedOn": "2015-12-09T13:47:30.05",
    "ResultStatus": "InStock",
    "ResultComment": "Car in reseller stock"
  },
  {
    "TaskCode": "TP-20151231-001",
    "VIN": "1G2NW12E25M200025",
    "RFIDCode": "2234567890025",
    "GPS": "$GPGGA,121252.000,3937.3032,N,11611.6046,E,1,05,2.0,45.9,M,-5.7,M,,0000*77",
    "ScannedOn": "2015-12-09T13:47:30.05",
    "ResultStatus": "InStock",
    "ResultComment": "Car in reseller stock"
  },
  {
    "TaskCode": "TP-20151231-001",
    "VIN": "1G2NW12E25M200026",
    "RFIDCode": "2234567890026",
    "GPS": "$GPGGA,121252.000,3937.3032,N,11611.6046,E,1,05,2.0,45.9,M,-5.7,M,,0000*77",
    "ScannedOn": "2015-12-09T13:47:30.05",
    "ResultStatus": "InStock",
    "ResultComment": "Car in reseller stock"
  },
  {
    "TaskCode": "TP-20151231-001",
    "VIN": "1G2NW12E25M200027",
    "RFIDCode": "2234567890027",
    "GPS": "$GPGGA,121252.000,3937.3032,N,11611.6046,E,1,05,2.0,45.9,M,-5.7,M,,0000*77",
    "ScannedOn": "2015-12-09T13:47:30.05",
    "ResultStatus": "InStock",
    "ResultComment": "Car in reseller stock"
  },
  {
    "TaskCode": "TP-20151231-001",
    "VIN": "1G2NW12E25M200028",
    "RFIDCode": "2234567890028",
    "GPS": "$GPGGA,121252.000,3937.3032,N,11611.6046,E,1,05,2.0,45.9,M,-5.7,M,,0000*77",
    "ScannedOn": "2015-12-09T13:47:30.05",
    "ResultStatus": "InStock",
    "ResultComment": "Car in reseller stock"
  },
  {
    "TaskCode": "TP-20151231-001",
    "VIN": "1G2NW12E25M200029",
    "RFIDCode": "2234567890029",
    "GPS": "$GPGGA,121252.000,3937.3032,N,11611.6046,E,1,05,2.0,45.9,M,-5.7,M,,0000*77",
    "ScannedOn": "2015-12-09T13:47:30.05",
    "ResultStatus": "InStock",
    "ResultComment": "Car in reseller stock"
  },
  {
    "TaskCode": "TP-20151231-001",
    "VIN": "1G2NW12E25M200030",
    "RFIDCode": "2234567890030",
    "GPS": "$GPGGA,121252.000,3937.3032,N,11611.6046,E,1,05,2.0,45.9,M,-5.7,M,,0000*77",
    "ScannedOn": "2015-12-09T13:47:30.05",
    "ResultStatus": "InStock",
    "ResultComment": "Car in reseller stock"
  },
  {
    "TaskCode": "TP-20151231-001",
    "VIN": "1G2NW12E25M200031",
    "RFIDCode": "2234567890031",
    "GPS": "$GPGGA,121252.000,3937.3032,N,11611.6046,E,1,05,2.0,45.9,M,-5.7,M,,0000*77",
    "ScannedOn": "2015-12-09T13:47:30.05",
    "ResultStatus": "InStock",
    "ResultComment": "Car in reseller stock"
  },
  {
    "TaskCode": "TP-20151231-001",
    "VIN": "1G2NW12E25M200032",
    "RFIDCode": "2234567890032",
    "GPS": "$GPGGA,121252.000,3937.3032,N,11611.6046,E,1,05,2.0,45.9,M,-5.7,M,,0000*77",
    "ScannedOn": "2015-12-09T13:47:30.05",
    "ResultStatus": "InStock",
    "ResultComment": "Car in reseller stock"
  },
  {
    "TaskCode": "TP-20151231-001",
    "VIN": "1G2NW12E25M200033",
    "RFIDCode": "2234567890033",
    "GPS": "$GPGGA,121252.000,3937.3032,N,11611.6046,E,1,05,2.0,45.9,M,-5.7,M,,0000*77",
    "ScannedOn": "2015-12-09T13:47:30.05",
    "ResultStatus": "InStock",
    "ResultComment": "Car in reseller stock"
  },
  {
    "TaskCode": "TP-20151231-001",
    "VIN": "1G2NW12E25M200034",
    "RFIDCode": "2234567890034",
    "GPS": "$GPGGA,121252.000,3937.3032,N,11611.6046,E,1,05,2.0,45.9,M,-5.7,M,,0000*77",
    "ScannedOn": "2015-12-09T13:47:30.05",
    "ResultStatus": "InStock",
    "ResultComment": "Car in reseller stock"
  },
  {
    "TaskCode": "TP-20151231-001",
    "VIN": "1G2NW12E25M200035",
    "RFIDCode": "2234567890035",
    "GPS": "$GPGGA,121252.000,3937.3032,N,11611.6046,E,1,05,2.0,45.9,M,-5.7,M,,0000*77",
    "ScannedOn": "2015-12-09T13:47:30.05",
    "ResultStatus": "InStock",
    "ResultComment": "Car in reseller stock"
  },
  {
    "TaskCode": "TP-20151231-001",
    "VIN": "1G2NW12E25M200036",
    "RFIDCode": "2234567890036",
    "GPS": "$GPGGA,121252.000,3937.3032,N,11611.6046,E,1,05,2.0,45.9,M,-5.7,M,,0000*77",
    "ScannedOn": "2015-12-09T13:47:30.05",
    "ResultStatus": "InStock",
    "ResultComment": "Car in reseller stock"
  },
  {
    "TaskCode": "TP-20151231-001",
    "VIN": "1G2NW12E25M200037",
    "RFIDCode": "2234567890037",
    "GPS": "$GPGGA,121252.000,3937.3032,N,11611.6046,E,1,05,2.0,45.9,M,-5.7,M,,0000*77",
    "ScannedOn": "2015-12-09T13:47:30.05",
    "ResultStatus": "InStock",
    "ResultComment": "Car in reseller stock"
  },
  {
    "TaskCode": "TP-20151231-001",
    "VIN": "1G2NW12E25M200038",
    "RFIDCode": "2234567890038",
    "GPS": "$GPGGA,121252.000,3937.3032,N,11611.6046,E,1,05,2.0,45.9,M,-5.7,M,,0000*77",
    "ScannedOn": "2015-12-09T13:47:30.05",
    "ResultStatus": "InStock",
    "ResultComment": "Car in reseller stock"
  },
  {
    "TaskCode": "TP-20151231-001",
    "VIN": "1G2NW12E25M200039",
    "RFIDCode": "2234567890039",
    "GPS": "$GPGGA,121252.000,3937.3032,N,11611.6046,E,1,05,2.0,45.9,M,-5.7,M,,0000*77",
    "ScannedOn": "2015-12-09T13:47:30.05",
    "ResultStatus": "InStock",
    "ResultComment": "Car in reseller stock"
  },
  {
    "TaskCode": "TP-20151231-001",
    "VIN": "1G2NW12E25M200040",
    "RFIDCode": "2234567890040",
    "GPS": "$GPGGA,121252.000,3937.3032,N,11611.6046,E,1,05,2.0,45.9,M,-5.7,M,,0000*77",
    "ScannedOn": "2015-12-09T13:47:30.05",
    "ResultStatus": "InStock",
    "ResultComment": "Car in reseller stock"
  },
  {
    "TaskCode": "TP-20151231-001",
    "VIN": "1G2NW12E25M200041",
    "RFIDCode": "2234567890041",
    "GPS": "$GPGGA,121252.000,3937.3032,N,11611.6046,E,1,05,2.0,45.9,M,-5.7,M,,0000*77",
    "ScannedOn": "2015-12-09T13:47:30.05",
    "ResultStatus": "InStock",
    "ResultComment": "Car in reseller stock"
  },
  {
    "TaskCode": "TP-20151231-001",
    "VIN": "1G2NW12E25M200042",
    "RFIDCode": "2234567890042",
    "GPS": "$GPGGA,121252.000,3937.3032,N,11611.6046,E,1,05,2.0,45.9,M,-5.7,M,,0000*77",
    "ScannedOn": "2015-12-09T13:47:30.05",
    "ResultStatus": "InStock",
    "ResultComment": "Car in reseller stock"
  },
  {
    "TaskCode": "TP-20151231-001",
    "VIN": "1G2NW12E25M200043",
    "RFIDCode": "2234567890043",
    "GPS": "$GPGGA,121252.000,3937.3032,N,11611.6046,E,1,05,2.0,45.9,M,-5.7,M,,0000*77",
    "ScannedOn": "2015-12-09T13:47:30.05",
    "ResultStatus": "InStock",
    "ResultComment": "Car in reseller stock"
  },
  {
    "TaskCode": "TP-20151231-001",
    "VIN": "1G2NW12E25M200044",
    "RFIDCode": "2234567890044",
    "GPS": "$GPGGA,121252.000,3937.3032,N,11611.6046,E,1,05,2.0,45.9,M,-5.7,M,,0000*77",
    "ScannedOn": "2015-12-09T13:47:30.05",
    "ResultStatus": "InStock",
    "ResultComment": "Car in reseller stock"
  },
  {
    "TaskCode": "TP-20151231-001",
    "VIN": "1G2NW12E25M200045",
    "RFIDCode": "2234567890045",
    "GPS": "$GPGGA,121252.000,3937.3032,N,11611.6046,E,1,05,2.0,45.9,M,-5.7,M,,0000*77",
    "ScannedOn": "2015-12-09T13:47:30.05",
    "ResultStatus": "InStock",
    "ResultComment": "Car in reseller stock"
  },
  {
    "TaskCode": "TP-20151231-001",
    "VIN": "1G2NW12E25M200046",
    "RFIDCode": "2234567890046",
    "GPS": "$GPGGA,121252.000,3937.3032,N,11611.6046,E,1,05,2.0,45.9,M,-5.7,M,,0000*77",
    "ScannedOn": "2015-12-09T13:47:30.05",
    "ResultStatus": "InStock",
    "ResultComment": "Car in reseller stock"
  },
  {
    "TaskCode": "TP-20151231-001",
    "VIN": "1G2NW12E25M200047",
    "RFIDCode": "2234567890047",
    "GPS": "$GPGGA,121252.000,3937.3032,N,11611.6046,E,1,05,2.0,45.9,M,-5.7,M,,0000*77",
    "ScannedOn": "2015-12-09T13:47:30.05",
    "ResultStatus": "InStock",
    "ResultComment": "Car in reseller stock"
  },
  {
    "TaskCode": "TP-20151231-001",
    "VIN": "1G2NW12E25M200048",
    "RFIDCode": "2234567890048",
    "GPS": "$GPGGA,121252.000,3937.3032,N,11611.6046,E,1,05,2.0,45.9,M,-5.7,M,,0000*77",
    "ScannedOn": "2015-12-09T13:47:30.05",
    "ResultStatus": "InStock",
    "ResultComment": "Car in reseller stock"
  },
  {
    "TaskCode": "TP-20151231-001",
    "VIN": "1G2NW12E25M200049",
    "RFIDCode": "2234567890049",
    "GPS": "$GPGGA,121252.000,3937.3032,N,11611.6046,E,1,05,2.0,45.9,M,-5.7,M,,0000*77",
    "ScannedOn": "2015-12-09T13:47:30.05",
    "ResultStatus": "InStock",
    "ResultComment": "Car in reseller stock"
  },
  {
    "TaskCode": "TP-20151231-001",
    "VIN": "1G2NW12E25M200050",
    "RFIDCode": "2234567890050",
    "GPS": "$GPGGA,121252.000,3937.3032,N,11611.6046,E,1,05,2.0,45.9,M,-5.7,M,,0000*77",
    "ScannedOn": "2015-12-09T13:47:30.05",
    "ResultStatus": "InStock",
    "ResultComment": "Car in reseller stock"
  },
  {
    "TaskCode": "TP-20151231-001",
    "VIN": "1G2NW12E25M200051",
    "RFIDCode": "2234567890051",
    "GPS": "$GPGGA,121252.000,3937.3032,N,11611.6046,E,1,05,2.0,45.9,M,-5.7,M,,0000*77",
    "ScannedOn": "2015-12-09T13:47:30.05",
    "ResultStatus": "InStock",
    "ResultComment": "Car in reseller stock"
  },
  {
    "TaskCode": "TP-20151231-001",
    "VIN": "1G2NW12E25M200052",
    "RFIDCode": "2234567890052",
    "GPS": "$GPGGA,121252.000,3937.3032,N,11611.6046,E,1,05,2.0,45.9,M,-5.7,M,,0000*77",
    "ScannedOn": "2015-12-09T13:47:30.05",
    "ResultStatus": "InStock",
    "ResultComment": "Car in reseller stock"
  },
  {
    "TaskCode": "TP-20151231-001",
    "VIN": "1G2NW12E25M200053",
    "RFIDCode": "2234567890053",
    "GPS": "$GPGGA,121252.000,3937.3032,N,11611.6046,E,1,05,2.0,45.9,M,-5.7,M,,0000*77",
    "ScannedOn": "2015-12-09T13:47:30.05",
    "ResultStatus": "InStock",
    "ResultComment": "Car in reseller stock"
  },
  {
    "TaskCode": "TP-20151231-001",
    "VIN": "1G2NW12E25M200054",
    "RFIDCode": "2234567890054",
    "GPS": "$GPGGA,121252.000,3937.3032,N,11611.6046,E,1,05,2.0,45.9,M,-5.7,M,,0000*77",
    "ScannedOn": "2015-12-09T13:47:30.05",
    "ResultStatus": "InStock",
    "ResultComment": "Car in reseller stock"
  },
  {
    "TaskCode": "TP-20151231-001",
    "VIN": "1G2NW12E25M200055",
    "RFIDCode": "2234567890055",
    "GPS": "$GPGGA,121252.000,3937.3032,N,11611.6046,E,1,05,2.0,45.9,M,-5.7,M,,0000*77",
    "ScannedOn": "2015-12-09T13:47:30.05",
    "ResultStatus": "InStock",
    "ResultComment": "Car in reseller stock"
  },
  {
    "TaskCode": "TP-20151231-001",
    "VIN": "1G2NW12E25M200056",
    "RFIDCode": "2234567890056",
    "GPS": "$GPGGA,121252.000,3937.3032,N,11611.6046,E,1,05,2.0,45.9,M,-5.7,M,,0000*77",
    "ScannedOn": "2015-12-09T13:47:30.05",
    "ResultStatus": "InStock",
    "ResultComment": "Car in reseller stock"
  },
  {
    "TaskCode": "TP-20151231-001",
    "VIN": "1G2NW12E25M200057",
    "RFIDCode": "2234567890057",
    "GPS": "$GPGGA,121252.000,3937.3032,N,11611.6046,E,1,05,2.0,45.9,M,-5.7,M,,0000*77",
    "ScannedOn": "2015-12-09T13:47:30.05",
    "ResultStatus": "InStock",
    "ResultComment": "Car in reseller stock"
  },
  {
    "TaskCode": "TP-20151231-001",
    "VIN": "1G2NW12E25M200058",
    "RFIDCode": "2234567890058",
    "GPS": "$GPGGA,121252.000,3937.3032,N,11611.6046,E,1,05,2.0,45.9,M,-5.7,M,,0000*77",
    "ScannedOn": "2015-12-09T13:47:30.05",
    "ResultStatus": "InStock",
    "ResultComment": "Car in reseller stock"
  },
  {
    "TaskCode": "TP-20151231-001",
    "VIN": "1G2NW12E25M200059",
    "RFIDCode": "2234567890059",
    "GPS": "$GPGGA,121252.000,3937.3032,N,11611.6046,E,1,05,2.0,45.9,M,-5.7,M,,0000*77",
    "ScannedOn": "2015-12-09T13:47:30.05",
    "ResultStatus": "InStock",
    "ResultComment": "Car in reseller stock"
  },
  {
    "TaskCode": "TP-20151231-001",
    "VIN": "1G2NW12E25M200060",
    "RFIDCode": "2234567890060",
    "GPS": "$GPGGA,121252.000,3937.3032,N,11611.6046,E,1,05,2.0,45.9,M,-5.7,M,,0000*77",
    "ScannedOn": "2015-12-09T13:47:30.05",
    "ResultStatus": "InStock",
    "ResultComment": "Car in reseller stock"
  },
  {
    "TaskCode": "TP-20151231-001",
    "VIN": "1G2NW12E25M200061",
    "RFIDCode": "2234567890061",
    "GPS": "$GPGGA,121252.000,3937.3032,N,11611.6046,E,1,05,2.0,45.9,M,-5.7,M,,0000*77",
    "ScannedOn": "2015-12-09T13:47:30.05",
    "ResultStatus": "InStock",
    "ResultComment": "Car in reseller stock"
  },
  {
    "TaskCode": "TP-20151231-001",
    "VIN": "1G2NW12E25M200062",
    "RFIDCode": "2234567890062",
    "GPS": "$GPGGA,121252.000,3937.3032,N,11611.6046,E,1,05,2.0,45.9,M,-5.7,M,,0000*77",
    "ScannedOn": "2015-12-09T13:47:30.05",
    "ResultStatus": "InStock",
    "ResultComment": "Car in reseller stock"
  },
  {
    "TaskCode": "TP-20151231-001",
    "VIN": "1G2NW12E25M200063",
    "RFIDCode": "2234567890063",
    "GPS": "$GPGGA,121252.000,3937.3032,N,11611.6046,E,1,05,2.0,45.9,M,-5.7,M,,0000*77",
    "ScannedOn": "2015-12-09T13:47:30.05",
    "ResultStatus": "InStock",
    "ResultComment": "Car in reseller stock"
  },
  {
    "TaskCode": "TP-20151231-001",
    "VIN": "1G2NW12E25M200064",
    "RFIDCode": "2234567890064",
    "GPS": "$GPGGA,121252.000,3937.3032,N,11611.6046,E,1,05,2.0,45.9,M,-5.7,M,,0000*77",
    "ScannedOn": "2015-12-09T13:47:30.05",
    "ResultStatus": "InStock",
    "ResultComment": "Car in reseller stock"
  },
  {
    "TaskCode": "TP-20151231-001",
    "VIN": "1G2NW12E25M200065",
    "RFIDCode": "2234567890065",
    "GPS": "$GPGGA,121252.000,3937.3032,N,11611.6046,E,1,05,2.0,45.9,M,-5.7,M,,0000*77",
    "ScannedOn": "2015-12-09T13:47:30.05",
    "ResultStatus": "InStock",
    "ResultComment": "Car in reseller stock"
  },
  {
    "TaskCode": "TP-20151231-001",
    "VIN": "1G2NW12E25M200066",
    "RFIDCode": "2234567890066",
    "GPS": "$GPGGA,121252.000,3937.3032,N,11611.6046,E,1,05,2.0,45.9,M,-5.7,M,,0000*77",
    "ScannedOn": "2015-12-09T13:47:30.05",
    "ResultStatus": "InStock",
    "ResultComment": "Car in reseller stock"
  },
  {
    "TaskCode": "TP-20151231-001",
    "VIN": "1G2NW12E25M200067",
    "RFIDCode": "2234567890067",
    "GPS": "$GPGGA,121252.000,3937.3032,N,11611.6046,E,1,05,2.0,45.9,M,-5.7,M,,0000*77",
    "ScannedOn": "2015-12-09T13:47:30.05",
    "ResultStatus": "InStock",
    "ResultComment": "Car in reseller stock"
  },
  {
    "TaskCode": "TP-20151231-001",
    "VIN": "1G2NW12E25M200068",
    "RFIDCode": "2234567890068",
    "GPS": "$GPGGA,121252.000,3937.3032,N,11611.6046,E,1,05,2.0,45.9,M,-5.7,M,,0000*77",
    "ScannedOn": "2015-12-09T13:47:30.05",
    "ResultStatus": "InStock",
    "ResultComment": "Car in reseller stock"
  },
  {
    "TaskCode": "TP-20151231-001",
    "VIN": "1G2NW12E25M200069",
    "RFIDCode": "2234567890069",
    "GPS": "$GPGGA,121252.000,3937.3032,N,11611.6046,E,1,05,2.0,45.9,M,-5.7,M,,0000*77",
    "ScannedOn": "2015-12-09T13:47:30.05",
    "ResultStatus": "InStock",
    "ResultComment": "Car in reseller stock"
  },
  {
    "TaskCode": "TP-20151231-001",
    "VIN": "1G2NW12E25M200070",
    "RFIDCode": "2234567890070",
    "GPS": "$GPGGA,121252.000,3937.3032,N,11611.6046,E,1,05,2.0,45.9,M,-5.7,M,,0000*77",
    "ScannedOn": "2015-12-09T13:47:30.05",
    "ResultStatus": "InStock",
    "ResultComment": "Car in reseller stock"
  },
  {
    "TaskCode": "TP-20151231-001",
    "VIN": "1G2NW12E25M200071",
    "RFIDCode": "2234567890071",
    "GPS": "$GPGGA,121252.000,3937.3032,N,11611.6046,E,1,05,2.0,45.9,M,-5.7,M,,0000*77",
    "ScannedOn": "2015-12-09T13:47:30.05",
    "ResultStatus": "InStock",
    "ResultComment": "Car in reseller stock"
  },
  {
    "TaskCode": "TP-20151231-001",
    "VIN": "1G2NW12E25M200072",
    "RFIDCode": "2234567890072",
    "GPS": "$GPGGA,121252.000,3937.3032,N,11611.6046,E,1,05,2.0,45.9,M,-5.7,M,,0000*77",
    "ScannedOn": "2015-12-09T13:47:30.05",
    "ResultStatus": "InStock",
    "ResultComment": "Car in reseller stock"
  },
  {
    "TaskCode": "TP-20151231-001",
    "VIN": "1G2NW12E25M200073",
    "RFIDCode": "2234567890073",
    "GPS": "$GPGGA,121252.000,3937.3032,N,11611.6046,E,1,05,2.0,45.9,M,-5.7,M,,0000*77",
    "ScannedOn": "2015-12-09T13:47:30.05",
    "ResultStatus": "InStock",
    "ResultComment": "Car in reseller stock"
  },
  {
    "TaskCode": "TP-20151231-001",
    "VIN": "1G2NW12E25M200074",
    "RFIDCode": "2234567890074",
    "GPS": "$GPGGA,121252.000,3937.3032,N,11611.6046,E,1,05,2.0,45.9,M,-5.7,M,,0000*77",
    "ScannedOn": "2015-12-09T13:47:30.05",
    "ResultStatus": "InStock",
    "ResultComment": "Car in reseller stock"
  },
  {
    "TaskCode": "TP-20151231-001",
    "VIN": "1G2NW12E25M200075",
    "RFIDCode": "2234567890075",
    "GPS": "$GPGGA,121252.000,3937.3032,N,11611.6046,E,1,05,2.0,45.9,M,-5.7,M,,0000*77",
    "ScannedOn": "2015-12-09T13:47:30.05",
    "ResultStatus": "InStock",
    "ResultComment": "Car in reseller stock"
  },
  {
    "TaskCode": "TP-20151231-001",
    "VIN": "1G2NW12E25M200076",
    "RFIDCode": "2234567890076",
    "GPS": "$GPGGA,121252.000,3937.3032,N,11611.6046,E,1,05,2.0,45.9,M,-5.7,M,,0000*77",
    "ScannedOn": "2015-12-09T13:47:30.05",
    "ResultStatus": "InStock",
    "ResultComment": "Car in reseller stock"
  },
  {
    "TaskCode": "TP-20151231-001",
    "VIN": "1G2NW12E25M200077",
    "RFIDCode": "2234567890077",
    "GPS": "$GPGGA,121252.000,3937.3032,N,11611.6046,E,1,05,2.0,45.9,M,-5.7,M,,0000*77",
    "ScannedOn": "2015-12-09T13:47:30.05",
    "ResultStatus": "InStock",
    "ResultComment": "Car in reseller stock"
  },
  {
    "TaskCode": "TP-20151231-001",
    "VIN": "1G2NW12E25M200078",
    "RFIDCode": "2234567890078",
    "GPS": "$GPGGA,121252.000,3937.3032,N,11611.6046,E,1,05,2.0,45.9,M,-5.7,M,,0000*77",
    "ScannedOn": "2015-12-09T13:47:30.05",
    "ResultStatus": "InStock",
    "ResultComment": "Car in reseller stock"
  },
  {
    "TaskCode": "TP-20151231-001",
    "VIN": "1G2NW12E25M200079",
    "RFIDCode": "2234567890079",
    "GPS": "$GPGGA,121252.000,3937.3032,N,11611.6046,E,1,05,2.0,45.9,M,-5.7,M,,0000*77",
    "ScannedOn": "2015-12-09T13:47:30.05",
    "ResultStatus": "InStock",
    "ResultComment": "Car in reseller stock"
  },
  {
    "TaskCode": "TP-20151231-001",
    "VIN": "1G2NW12E25M200080",
    "RFIDCode": "2234567890080",
    "GPS": "$GPGGA,121252.000,3937.3032,N,11611.6046,E,1,05,2.0,45.9,M,-5.7,M,,0000*77",
    "ScannedOn": "2015-12-09T13:47:30.05",
    "ResultStatus": "InStock",
    "ResultComment": "Car in reseller stock"
  },
  {
    "TaskCode": "TP-20151231-001",
    "VIN": "1G2NW12E25M200081",
    "RFIDCode": "2234567890081",
    "GPS": "$GPGGA,121252.000,3937.3032,N,11611.6046,E,1,05,2.0,45.9,M,-5.7,M,,0000*77",
    "ScannedOn": "2015-12-09T13:47:30.05",
    "ResultStatus": "InStock",
    "ResultComment": "Car in reseller stock"
  },
  {
    "TaskCode": "TP-20151231-001",
    "VIN": "1G2NW12E25M200082",
    "RFIDCode": "2234567890082",
    "GPS": "$GPGGA,121252.000,3937.3032,N,11611.6046,E,1,05,2.0,45.9,M,-5.7,M,,0000*77",
    "ScannedOn": "2015-12-09T13:47:30.05",
    "ResultStatus": "InStock",
    "ResultComment": "Car in reseller stock"
  },
  {
    "TaskCode": "TP-20151231-001",
    "VIN": "1G2NW12E25M200083",
    "RFIDCode": "2234567890083",
    "GPS": "$GPGGA,121252.000,3937.3032,N,11611.6046,E,1,05,2.0,45.9,M,-5.7,M,,0000*77",
    "ScannedOn": "2015-12-09T13:47:30.05",
    "ResultStatus": "InStock",
    "ResultComment": "Car in reseller stock"
  },
  {
    "TaskCode": "TP-20151231-001",
    "VIN": "1G2NW12E25M200084",
    "RFIDCode": "2234567890084",
    "GPS": "$GPGGA,121252.000,3937.3032,N,11611.6046,E,1,05,2.0,45.9,M,-5.7,M,,0000*77",
    "ScannedOn": "2015-12-09T13:47:30.05",
    "ResultStatus": "InStock",
    "ResultComment": "Car in reseller stock"
  },
  {
    "TaskCode": "TP-20151231-001",
    "VIN": "1G2NW12E25M200085",
    "RFIDCode": "2234567890085",
    "GPS": "$GPGGA,121252.000,3937.3032,N,11611.6046,E,1,05,2.0,45.9,M,-5.7,M,,0000*77",
    "ScannedOn": "2015-12-09T13:47:30.05",
    "ResultStatus": "InStock",
    "ResultComment": "Car in reseller stock"
  },
  {
    "TaskCode": "TP-20151231-001",
    "VIN": "1G2NW12E25M200086",
    "RFIDCode": "2234567890086",
    "GPS": "$GPGGA,121252.000,3937.3032,N,11611.6046,E,1,05,2.0,45.9,M,-5.7,M,,0000*77",
    "ScannedOn": "2015-12-09T13:47:30.05",
    "ResultStatus": "InStock",
    "ResultComment": "Car in reseller stock"
  },
  {
    "TaskCode": "TP-20151231-001",
    "VIN": "1G2NW12E25M200087",
    "RFIDCode": "2234567890087",
    "GPS": "$GPGGA,121252.000,3937.3032,N,11611.6046,E,1,05,2.0,45.9,M,-5.7,M,,0000*77",
    "ScannedOn": "2015-12-09T13:47:30.05",
    "ResultStatus": "InStock",
    "ResultComment": "Car in reseller stock"
  },
  {
    "TaskCode": "TP-20151231-001",
    "VIN": "1G2NW12E25M200088",
    "RFIDCode": "2234567890088",
    "GPS": "$GPGGA,121252.000,3937.3032,N,11611.6046,E,1,05,2.0,45.9,M,-5.7,M,,0000*77",
    "ScannedOn": "2015-12-09T13:47:30.05",
    "ResultStatus": "InStock",
    "ResultComment": "Car in reseller stock"
  },
  {
    "TaskCode": "TP-20151231-001",
    "VIN": "1G2NW12E25M200089",
    "RFIDCode": "2234567890089",
    "GPS": "$GPGGA,121252.000,3937.3032,N,11611.6046,E,1,05,2.0,45.9,M,-5.7,M,,0000*77",
    "ScannedOn": "2015-12-09T13:47:30.05",
    "ResultStatus": "InStock",
    "ResultComment": "Car in reseller stock"
  },
  {
    "TaskCode": "TP-20151231-001",
    "VIN": "1G2NW12E25M200090",
    "RFIDCode": "2234567890090",
    "GPS": "$GPGGA,121252.000,3937.3032,N,11611.6046,E,1,05,2.0,45.9,M,-5.7,M,,0000*77",
    "ScannedOn": "2015-12-09T13:47:30.05",
    "ResultStatus": "InStock",
    "ResultComment": "Car in reseller stock"
  },
  {
    "TaskCode": "TP-20151231-001",
    "VIN": "1G2NW12E25M200091",
    "RFIDCode": "2234567890091",
    "GPS": "$GPGGA,121252.000,3937.3032,N,11611.6046,E,1,05,2.0,45.9,M,-5.7,M,,0000*77",
    "ScannedOn": "2015-12-09T13:47:30.05",
    "ResultStatus": "InStock",
    "ResultComment": "Car in reseller stock"
  },
  {
    "TaskCode": "TP-20151231-001",
    "VIN": "1G2NW12E25M200092",
    "RFIDCode": "2234567890092",
    "GPS": "$GPGGA,121252.000,3937.3032,N,11611.6046,E,1,05,2.0,45.9,M,-5.7,M,,0000*77",
    "ScannedOn": "2015-12-09T13:47:30.05",
    "ResultStatus": "InStock",
    "ResultComment": "Car in reseller stock"
  },
  {
    "TaskCode": "TP-20151231-001",
    "VIN": "1G2NW12E25M200093",
    "RFIDCode": "2234567890093",
    "GPS": "$GPGGA,121252.000,3937.3032,N,11611.6046,E,1,05,2.0,45.9,M,-5.7,M,,0000*77",
    "ScannedOn": "2015-12-09T13:47:30.05",
    "ResultStatus": "InStock",
    "ResultComment": "Car in reseller stock"
  },
  {
    "TaskCode": "TP-20151231-001",
    "VIN": "1G2NW12E25M200094",
    "RFIDCode": "2234567890094",
    "GPS": "$GPGGA,121252.000,3937.3032,N,11611.6046,E,1,05,2.0,45.9,M,-5.7,M,,0000*77",
    "ScannedOn": "2015-12-09T13:47:30.05",
    "ResultStatus": "InStock",
    "ResultComment": "Car in reseller stock"
  },
  {
    "TaskCode": "TP-20151231-001",
    "VIN": "1G2NW12E25M200095",
    "RFIDCode": "2234567890095",
    "GPS": "$GPGGA,121252.000,3937.3032,N,11611.6046,E,1,05,2.0,45.9,M,-5.7,M,,0000*77",
    "ScannedOn": "2015-12-09T13:47:30.05",
    "ResultStatus": "InStock",
    "ResultComment": "Car in reseller stock"
  },
  {
    "TaskCode": "TP-20151231-001",
    "VIN": "1G2NW12E25M200096",
    "RFIDCode": "2234567890096",
    "GPS": "$GPGGA,121252.000,3937.3032,N,11611.6046,E,1,05,2.0,45.9,M,-5.7,M,,0000*77",
    "ScannedOn": "2015-12-09T13:47:30.05",
    "ResultStatus": "InStock",
    "ResultComment": "Car in reseller stock"
  },
  {
    "TaskCode": "TP-20151231-001",
    "VIN": "1G2NW12E25M200097",
    "RFIDCode": "2234567890097",
    "GPS": "$GPGGA,121252.000,3937.3032,N,11611.6046,E,1,05,2.0,45.9,M,-5.7,M,,0000*77",
    "ScannedOn": "2015-12-09T13:47:30.05",
    "ResultStatus": "InStock",
    "ResultComment": "Car in reseller stock"
  },
  {
    "TaskCode": "TP-20151231-001",
    "VIN": "1G2NW12E25M200098",
    "RFIDCode": "2234567890098",
    "GPS": "$GPGGA,121252.000,3937.3032,N,11611.6046,E,1,05,2.0,45.9,M,-5.7,M,,0000*77",
    "ScannedOn": "2015-12-09T13:47:30.05",
    "ResultStatus": "InStock",
    "ResultComment": "Car in reseller stock"
  },
  {
    "TaskCode": "TP-20151231-001",
    "VIN": "1G2NW12E25M200099",
    "RFIDCode": "2234567890099",
    "GPS": "$GPGGA,121252.000,3937.3032,N,11611.6046,E,1,05,2.0,45.9,M,-5.7,M,,0000*77",
    "ScannedOn": "2015-12-09T13:47:30.05",
    "ResultStatus": "InStock",
    "ResultComment": "Car in reseller stock"
  },
  {
    "TaskCode": "TP-20151231-001",
    "VIN": "1G2NW12E25M200100",
    "RFIDCode": "2234567890100",
    "GPS": "$GPGGA,121252.000,3937.3032,N,11611.6046,E,1,05,2.0,45.9,M,-5.7,M,,0000*77",
    "ScannedOn": "2015-12-09T13:47:30.05",
    "ResultStatus": "InStock",
    "ResultComment": "Car in reseller stock"
  },
  {
    "TaskCode": "TP-20151231-001",
    "VIN": "1G2NW12E25M200101",
    "RFIDCode": "2234567890101",
    "GPS": "$GPGGA,121252.000,3937.3032,N,11611.6046,E,1,05,2.0,45.9,M,-5.7,M,,0000*77",
    "ScannedOn": "2015-12-09T13:47:30.05",
    "ResultStatus": "InStock",
    "ResultComment": "Car in reseller stock"
  },
  {
    "TaskCode": "TP-20151231-001",
    "VIN": "1G2NW12E25M200102",
    "RFIDCode": "2234567890102",
    "GPS": "$GPGGA,121252.000,3937.3032,N,11611.6046,E,1,05,2.0,45.9,M,-5.7,M,,0000*77",
    "ScannedOn": "2015-12-09T13:47:30.05",
    "ResultStatus": "InStock",
    "ResultComment": "Car in reseller stock"
  },
  {
    "TaskCode": "TP-20151231-001",
    "VIN": "1G2NW12E25M200103",
    "RFIDCode": "2234567890103",
    "GPS": "$GPGGA,121252.000,3937.3032,N,11611.6046,E,1,05,2.0,45.9,M,-5.7,M,,0000*77",
    "ScannedOn": "2015-12-09T13:47:30.05",
    "ResultStatus": "InStock",
    "ResultComment": "Car in reseller stock"
  },
  {
    "TaskCode": "TP-20151231-001",
    "VIN": "1G2NW12E25M200104",
    "RFIDCode": "2234567890104",
    "GPS": "$GPGGA,121252.000,3937.3032,N,11611.6046,E,1,05,2.0,45.9,M,-5.7,M,,0000*77",
    "ScannedOn": "2015-12-09T13:47:30.05",
    "ResultStatus": "InStock",
    "ResultComment": "Car in reseller stock"
  },
  {
    "TaskCode": "TP-20151231-001",
    "VIN": "1G2NW12E25M200105",
    "RFIDCode": "2234567890105",
    "GPS": "$GPGGA,121252.000,3937.3032,N,11611.6046,E,1,05,2.0,45.9,M,-5.7,M,,0000*77",
    "ScannedOn": "2015-12-09T13:47:30.05",
    "ResultStatus": "InStock",
    "ResultComment": "Car in reseller stock"
  },
  {
    "TaskCode": "TP-20151231-001",
    "VIN": "1G2NW12E25M200106",
    "RFIDCode": "2234567890106",
    "GPS": "$GPGGA,121252.000,3937.3032,N,11611.6046,E,1,05,2.0,45.9,M,-5.7,M,,0000*77",
    "ScannedOn": "2015-12-09T13:47:30.05",
    "ResultStatus": "InStock",
    "ResultComment": "Car in reseller stock"
  },
  {
    "TaskCode": "TP-20151231-001",
    "VIN": "1G2NW12E25M200107",
    "RFIDCode": "2234567890107",
    "GPS": "$GPGGA,121252.000,3937.3032,N,11611.6046,E,1,05,2.0,45.9,M,-5.7,M,,0000*77",
    "ScannedOn": "2015-12-09T13:47:30.05",
    "ResultStatus": "InStock",
    "ResultComment": "Car in reseller stock"
  },
  {
    "TaskCode": "TP-20151231-001",
    "VIN": "1G2NW12E25M200108",
    "RFIDCode": "2234567890108",
    "GPS": "$GPGGA,121252.000,3937.3032,N,11611.6046,E,1,05,2.0,45.9,M,-5.7,M,,0000*77",
    "ScannedOn": "2015-12-09T13:47:30.05",
    "ResultStatus": "InStock",
    "ResultComment": "Car in reseller stock"
  },
  {
    "TaskCode": "TP-20151231-001",
    "VIN": "1G2NW12E25M200109",
    "RFIDCode": "2234567890109",
    "GPS": "$GPGGA,121252.000,3937.3032,N,11611.6046,E,1,05,2.0,45.9,M,-5.7,M,,0000*77",
    "ScannedOn": "2015-12-09T13:47:30.05",
    "ResultStatus": "InStock",
    "ResultComment": "Car in reseller stock"
  },
  {
    "TaskCode": "TP-20151231-001",
    "VIN": "1G2NW12E25M200110",
    "RFIDCode": "2234567890110",
    "GPS": "$GPGGA,121252.000,3937.3032,N,11611.6046,E,1,05,2.0,45.9,M,-5.7,M,,0000*77",
    "ScannedOn": "2015-12-09T13:47:30.05",
    "ResultStatus": "InStock",
    "ResultComment": "Car in reseller stock"
  },
  {
    "TaskCode": "TP-20151231-001",
    "VIN": "1G2NW12E25M200111",
    "RFIDCode": "2234567890111",
    "GPS": "$GPGGA,121252.000,3937.3032,N,11611.6046,E,1,05,2.0,45.9,M,-5.7,M,,0000*77",
    "ScannedOn": "2015-12-09T13:47:30.05",
    "ResultStatus": "InStock",
    "ResultComment": "Car in reseller stock"
  },
  {
    "TaskCode": "TP-20151231-001",
    "VIN": "1G2NW12E25M200112",
    "RFIDCode": "2234567890112",
    "GPS": "$GPGGA,121252.000,3937.3032,N,11611.6046,E,1,05,2.0,45.9,M,-5.7,M,,0000*77",
    "ScannedOn": "2015-12-09T13:47:30.05",
    "ResultStatus": "InStock",
    "ResultComment": "Car in reseller stock"
  },
  {
    "TaskCode": "TP-20151231-001",
    "VIN": "1G2NW12E25M200113",
    "RFIDCode": "2234567890113",
    "GPS": "$GPGGA,121252.000,3937.3032,N,11611.6046,E,1,05,2.0,45.9,M,-5.7,M,,0000*77",
    "ScannedOn": "2015-12-09T13:47:30.05",
    "ResultStatus": "InStock",
    "ResultComment": "Car in reseller stock"
  },
  {
    "TaskCode": "TP-20151231-001",
    "VIN": "1G2NW12E25M200114",
    "RFIDCode": "2234567890114",
    "GPS": "$GPGGA,121252.000,3937.3032,N,11611.6046,E,1,05,2.0,45.9,M,-5.7,M,,0000*77",
    "ScannedOn": "2015-12-09T13:47:30.05",
    "ResultStatus": "InStock",
    "ResultComment": "Car in reseller stock"
  },
  {
    "TaskCode": "TP-20151231-001",
    "VIN": "1G2NW12E25M200115",
    "RFIDCode": "2234567890115",
    "GPS": "$GPGGA,121252.000,3937.3032,N,11611.6046,E,1,05,2.0,45.9,M,-5.7,M,,0000*77",
    "ScannedOn": "2015-12-09T13:47:30.05",
    "ResultStatus": "InStock",
    "ResultComment": "Car in reseller stock"
  },
  {
    "TaskCode": "TP-20151231-001",
    "VIN": "1G2NW12E25M200116",
    "RFIDCode": "2234567890116",
    "GPS": "$GPGGA,121252.000,3937.3032,N,11611.6046,E,1,05,2.0,45.9,M,-5.7,M,,0000*77",
    "ScannedOn": "2015-12-09T13:47:30.05",
    "ResultStatus": "InStock",
    "ResultComment": "Car in reseller stock"
  },
  {
    "TaskCode": "TP-20151231-001",
    "VIN": "1G2NW12E25M200117",
    "RFIDCode": "2234567890117",
    "GPS": "$GPGGA,121252.000,3937.3032,N,11611.6046,E,1,05,2.0,45.9,M,-5.7,M,,0000*77",
    "ScannedOn": "2015-12-09T13:47:30.05",
    "ResultStatus": "InStock",
    "ResultComment": "Car in reseller stock"
  },
  {
    "TaskCode": "TP-20151231-001",
    "VIN": "1G2NW12E25M200118",
    "RFIDCode": "2234567890118",
    "GPS": "$GPGGA,121252.000,3937.3032,N,11611.6046,E,1,05,2.0,45.9,M,-5.7,M,,0000*77",
    "ScannedOn": "2015-12-09T13:47:30.05",
    "ResultStatus": "InStock",
    "ResultComment": "Car in reseller stock"
  },
  {
    "TaskCode": "TP-20151231-001",
    "VIN": "1G2NW12E25M200119",
    "RFIDCode": "2234567890119",
    "GPS": "$GPGGA,121252.000,3937.3032,N,11611.6046,E,1,05,2.0,45.9,M,-5.7,M,,0000*77",
    "ScannedOn": "2015-12-09T13:47:30.05",
    "ResultStatus": "InStock",
    "ResultComment": "Car in reseller stock"
  },
  {
    "TaskCode": "TP-20151231-001",
    "VIN": "1G2NW12E25M200120",
    "RFIDCode": "2234567890120",
    "GPS": "$GPGGA,121252.000,3937.3032,N,11611.6046,E,1,05,2.0,45.9,M,-5.7,M,,0000*77",
    "ScannedOn": "2015-12-09T13:47:30.05",
    "ResultStatus": "InStock",
    "ResultComment": "Car in reseller stock"
  },
  {
    "TaskCode": "TP-20151231-001",
    "VIN": "1G2NW12E25M200121",
    "RFIDCode": "2234567890121",
    "GPS": "$GPGGA,121252.000,3937.3032,N,11611.6046,E,1,05,2.0,45.9,M,-5.7,M,,0000*77",
    "ScannedOn": "2015-12-09T13:47:30.05",
    "ResultStatus": "InStock",
    "ResultComment": "Car in reseller stock"
  },
  {
    "TaskCode": "TP-20151231-001",
    "VIN": "1G2NW12E25M200122",
    "RFIDCode": "2234567890122",
    "GPS": "$GPGGA,121252.000,3937.3032,N,11611.6046,E,1,05,2.0,45.9,M,-5.7,M,,0000*77",
    "ScannedOn": "2015-12-09T13:47:30.05",
    "ResultStatus": "InStock",
    "ResultComment": "Car in reseller stock"
  },
  {
    "TaskCode": "TP-20151231-001",
    "VIN": "1G2NW12E25M200123",
    "RFIDCode": "2234567890123",
    "GPS": "$GPGGA,121252.000,3937.3032,N,11611.6046,E,1,05,2.0,45.9,M,-5.7,M,,0000*77",
    "ScannedOn": "2015-12-09T13:47:30.05",
    "ResultStatus": "InStock",
    "ResultComment": "Car in reseller stock"
  },
  {
    "TaskCode": "TP-20151231-001",
    "VIN": "1G2NW12E25M200124",
    "RFIDCode": "2234567890124",
    "GPS": "$GPGGA,121252.000,3937.3032,N,11611.6046,E,1,05,2.0,45.9,M,-5.7,M,,0000*77",
    "ScannedOn": "2015-12-09T13:47:30.05",
    "ResultStatus": "InStock",
    "ResultComment": "Car in reseller stock"
  },
  {
    "TaskCode": "TP-20151231-001",
    "VIN": "1G2NW12E25M200125",
    "RFIDCode": "2234567890125",
    "GPS": "$GPGGA,121252.000,3937.3032,N,11611.6046,E,1,05,2.0,45.9,M,-5.7,M,,0000*77",
    "ScannedOn": "2015-12-09T13:47:30.05",
    "ResultStatus": "InStock",
    "ResultComment": "Car in reseller stock"
  },
  {
    "TaskCode": "TP-20151231-001",
    "VIN": "1G2NW12E25M200126",
    "RFIDCode": "2234567890126",
    "GPS": "$GPGGA,121252.000,3937.3032,N,11611.6046,E,1,05,2.0,45.9,M,-5.7,M,,0000*77",
    "ScannedOn": "2015-12-09T13:47:30.05",
    "ResultStatus": "InStock",
    "ResultComment": "Car in reseller stock"
  },
  {
    "TaskCode": "TP-20151231-001",
    "VIN": "1G2NW12E25M200127",
    "RFIDCode": "2234567890127",
    "GPS": "$GPGGA,121252.000,3937.3032,N,11611.6046,E,1,05,2.0,45.9,M,-5.7,M,,0000*77",
    "ScannedOn": "2015-12-09T13:47:30.05",
    "ResultStatus": "InStock",
    "ResultComment": "Car in reseller stock"
  },
  {
    "TaskCode": "TP-20151231-001",
    "VIN": "1G2NW12E25M200128",
    "RFIDCode": "2234567890128",
    "GPS": "$GPGGA,121252.000,3937.3032,N,11611.6046,E,1,05,2.0,45.9,M,-5.7,M,,0000*77",
    "ScannedOn": "2015-12-09T13:47:30.05",
    "ResultStatus": "InStock",
    "ResultComment": "Car in reseller stock"
  },
  {
    "TaskCode": "TP-20151231-001",
    "VIN": "1G2NW12E25M200129",
    "RFIDCode": "2234567890129",
    "GPS": "$GPGGA,121252.000,3937.3032,N,11611.6046,E,1,05,2.0,45.9,M,-5.7,M,,0000*77",
    "ScannedOn": "2015-12-09T13:47:30.05",
    "ResultStatus": "InStock",
    "ResultComment": "Car in reseller stock"
  },
  {
    "TaskCode": "TP-20151231-001",
    "VIN": "1G2NW12E25M200130",
    "RFIDCode": "2234567890130",
    "GPS": "$GPGGA,121252.000,3937.3032,N,11611.6046,E,1,05,2.0,45.9,M,-5.7,M,,0000*77",
    "ScannedOn": "2015-12-09T13:47:30.05",
    "ResultStatus": "InStock",
    "ResultComment": "Car in reseller stock"
  },
  {
    "TaskCode": "TP-20151231-001",
    "VIN": "1G2NW12E25M200131",
    "RFIDCode": "2234567890131",
    "GPS": "$GPGGA,121252.000,3937.3032,N,11611.6046,E,1,05,2.0,45.9,M,-5.7,M,,0000*77",
    "ScannedOn": "2015-12-09T13:47:30.05",
    "ResultStatus": "InStock",
    "ResultComment": "Car in reseller stock"
  },
  {
    "TaskCode": "TP-20151231-001",
    "VIN": "1G2NW12E25M200132",
    "RFIDCode": "2234567890132",
    "GPS": "$GPGGA,121252.000,3937.3032,N,11611.6046,E,1,05,2.0,45.9,M,-5.7,M,,0000*77",
    "ScannedOn": "2015-12-09T13:47:30.05",
    "ResultStatus": "InStock",
    "ResultComment": "Car in reseller stock"
  },
  {
    "TaskCode": "TP-20151231-001",
    "VIN": "1G2NW12E25M200133",
    "RFIDCode": "2234567890133",
    "GPS": "$GPGGA,121252.000,3937.3032,N,11611.6046,E,1,05,2.0,45.9,M,-5.7,M,,0000*77",
    "ScannedOn": "2015-12-09T13:47:30.05",
    "ResultStatus": "InStock",
    "ResultComment": "Car in reseller stock"
  },
  {
    "TaskCode": "TP-20151231-001",
    "VIN": "1G2NW12E25M200134",
    "RFIDCode": "2234567890134",
    "GPS": "$GPGGA,121252.000,3937.3032,N,11611.6046,E,1,05,2.0,45.9,M,-5.7,M,,0000*77",
    "ScannedOn": "2015-12-09T13:47:30.05",
    "ResultStatus": "InStock",
    "ResultComment": "Car in reseller stock"
  },
  {
    "TaskCode": "TP-20151231-001",
    "VIN": "1G2NW12E25M200135",
    "RFIDCode": "2234567890135",
    "GPS": "$GPGGA,121252.000,3937.3032,N,11611.6046,E,1,05,2.0,45.9,M,-5.7,M,,0000*77",
    "ScannedOn": "2015-12-09T13:47:30.05",
    "ResultStatus": "InStock",
    "ResultComment": "Car in reseller stock"
  },
  {
    "TaskCode": "TP-20151231-001",
    "VIN": "1G2NW12E25M200136",
    "RFIDCode": "2234567890136",
    "GPS": "$GPGGA,121252.000,3937.3032,N,11611.6046,E,1,05,2.0,45.9,M,-5.7,M,,0000*77",
    "ScannedOn": "2015-12-09T13:47:30.05",
    "ResultStatus": "InStock",
    "ResultComment": "Car in reseller stock"
  },
  {
    "TaskCode": "TP-20151231-001",
    "VIN": "1G2NW12E25M200137",
    "RFIDCode": "2234567890137",
    "GPS": "$GPGGA,121252.000,3937.3032,N,11611.6046,E,1,05,2.0,45.9,M,-5.7,M,,0000*77",
    "ScannedOn": "2015-12-09T13:47:30.05",
    "ResultStatus": "InStock",
    "ResultComment": "Car in reseller stock"
  },
  {
    "TaskCode": "TP-20151231-001",
    "VIN": "1G2NW12E25M200138",
    "RFIDCode": "2234567890138",
    "GPS": "$GPGGA,121252.000,3937.3032,N,11611.6046,E,1,05,2.0,45.9,M,-5.7,M,,0000*77",
    "ScannedOn": "2015-12-09T13:47:30.05",
    "ResultStatus": "InStock",
    "ResultComment": "Car in reseller stock"
  },
  {
    "TaskCode": "TP-20151231-001",
    "VIN": "1G2NW12E25M200139",
    "RFIDCode": "2234567890139",
    "GPS": "$GPGGA,121252.000,3937.3032,N,11611.6046,E,1,05,2.0,45.9,M,-5.7,M,,0000*77",
    "ScannedOn": "2015-12-09T13:47:30.05",
    "ResultStatus": "InStock",
    "ResultComment": "Car in reseller stock"
  },
  {
    "TaskCode": "TP-20151231-001",
    "VIN": "1G2NW12E25M200140",
    "RFIDCode": "2234567890140",
    "GPS": "$GPGGA,121252.000,3937.3032,N,11611.6046,E,1,05,2.0,45.9,M,-5.7,M,,0000*77",
    "ScannedOn": "2015-12-09T13:47:30.05",
    "ResultStatus": "InStock",
    "ResultComment": "Car in reseller stock"
  },
  {
    "TaskCode": "TP-20151231-001",
    "VIN": "1G2NW12E25M200141",
    "RFIDCode": "2234567890141",
    "GPS": "$GPGGA,121252.000,3937.3032,N,11611.6046,E,1,05,2.0,45.9,M,-5.7,M,,0000*77",
    "ScannedOn": "2015-12-09T13:47:30.05",
    "ResultStatus": "InStock",
    "ResultComment": "Car in reseller stock"
  },
  {
    "TaskCode": "TP-20151231-001",
    "VIN": "1G2NW12E25M200142",
    "RFIDCode": "2234567890142",
    "GPS": "$GPGGA,121252.000,3937.3032,N,11611.6046,E,1,05,2.0,45.9,M,-5.7,M,,0000*77",
    "ScannedOn": "2015-12-09T13:47:30.05",
    "ResultStatus": "InStock",
    "ResultComment": "Car in reseller stock"
  },
  {
    "TaskCode": "TP-20151231-001",
    "VIN": "1G2NW12E25M200143",
    "RFIDCode": "2234567890143",
    "GPS": "$GPGGA,121252.000,3937.3032,N,11611.6046,E,1,05,2.0,45.9,M,-5.7,M,,0000*77",
    "ScannedOn": "2015-12-09T13:47:30.05",
    "ResultStatus": "InStock",
    "ResultComment": "Car in reseller stock"
  },
  {
    "TaskCode": "TP-20151231-001",
    "VIN": "1G2NW12E25M200144",
    "RFIDCode": "2234567890144",
    "GPS": "$GPGGA,121252.000,3937.3032,N,11611.6046,E,1,05,2.0,45.9,M,-5.7,M,,0000*77",
    "ScannedOn": "2015-12-09T13:47:30.05",
    "ResultStatus": "InStock",
    "ResultComment": "Car in reseller stock"
  },
  {
    "TaskCode": "TP-20151231-001",
    "VIN": "1G2NW12E25M200145",
    "RFIDCode": "2234567890145",
    "GPS": "$GPGGA,121252.000,3937.3032,N,11611.6046,E,1,05,2.0,45.9,M,-5.7,M,,0000*77",
    "ScannedOn": "2015-12-09T13:47:30.05",
    "ResultStatus": "InStock",
    "ResultComment": "Car in reseller stock"
  },
  {
    "TaskCode": "TP-20151231-001",
    "VIN": "1G2NW12E25M200146",
    "RFIDCode": "2234567890146",
    "GPS": "$GPGGA,121252.000,3937.3032,N,11611.6046,E,1,05,2.0,45.9,M,-5.7,M,,0000*77",
    "ScannedOn": "2015-12-09T13:47:30.05",
    "ResultStatus": "InStock",
    "ResultComment": "Car in reseller stock"
  },
  {
    "TaskCode": "TP-20151231-001",
    "VIN": "1G2NW12E25M200147",
    "RFIDCode": "2234567890147",
    "GPS": "$GPGGA,121252.000,3937.3032,N,11611.6046,E,1,05,2.0,45.9,M,-5.7,M,,0000*77",
    "ScannedOn": "2015-12-09T13:47:30.05",
    "ResultStatus": "InStock",
    "ResultComment": "Car in reseller stock"
  },
  {
    "TaskCode": "TP-20151231-001",
    "VIN": "1G2NW12E25M200148",
    "RFIDCode": "2234567890148",
    "GPS": "$GPGGA,121252.000,3937.3032,N,11611.6046,E,1,05,2.0,45.9,M,-5.7,M,,0000*77",
    "ScannedOn": "2015-12-09T13:47:30.05",
    "ResultStatus": "InStock",
    "ResultComment": "Car in reseller stock"
  },
  {
    "TaskCode": "TP-20151231-001",
    "VIN": "1G2NW12E25M200149",
    "RFIDCode": "2234567890149",
    "GPS": "$GPGGA,121252.000,3937.3032,N,11611.6046,E,1,05,2.0,45.9,M,-5.7,M,,0000*77",
    "ScannedOn": "2015-12-09T13:47:30.05",
    "ResultStatus": "InStock",
    "ResultComment": "Car in reseller stock"
  },
  {
    "TaskCode": "TP-20151231-001",
    "VIN": "1G2NW12E25M200150",
    "RFIDCode": "2234567890150",
    "GPS": "$GPGGA,121252.000,3937.3032,N,11611.6046,E,1,05,2.0,45.9,M,-5.7,M,,0000*77",
    "ScannedOn": "2015-12-09T13:47:30.05",
    "ResultStatus": "InStock",
    "ResultComment": "Car in reseller stock"
  },
  {
    "TaskCode": "TP-20151231-001",
    "VIN": "1G2NW12E25M200151",
    "RFIDCode": "2234567890151",
    "GPS": "$GPGGA,121252.000,3937.3032,N,11611.6046,E,1,05,2.0,45.9,M,-5.7,M,,0000*77",
    "ScannedOn": "2015-12-09T13:47:30.05",
    "ResultStatus": "InStock",
    "ResultComment": "Car in reseller stock"
  },
  {
    "TaskCode": "TP-20151231-001",
    "VIN": "1G2NW12E25M200152",
    "RFIDCode": "2234567890152",
    "GPS": "$GPGGA,121252.000,3937.3032,N,11611.6046,E,1,05,2.0,45.9,M,-5.7,M,,0000*77",
    "ScannedOn": "2015-12-09T13:47:30.05",
    "ResultStatus": "InStock",
    "ResultComment": "Car in reseller stock"
  },
  {
    "TaskCode": "TP-20151231-001",
    "VIN": "1G2NW12E25M200153",
    "RFIDCode": "2234567890153",
    "GPS": "$GPGGA,121252.000,3937.3032,N,11611.6046,E,1,05,2.0,45.9,M,-5.7,M,,0000*77",
    "ScannedOn": "2015-12-09T13:47:30.05",
    "ResultStatus": "InStock",
    "ResultComment": "Car in reseller stock"
  },
  {
    "TaskCode": "TP-20151231-001",
    "VIN": "1G2NW12E25M200154",
    "RFIDCode": "2234567890154",
    "GPS": "$GPGGA,121252.000,3937.3032,N,11611.6046,E,1,05,2.0,45.9,M,-5.7,M,,0000*77",
    "ScannedOn": "2015-12-09T13:47:30.05",
    "ResultStatus": "InStock",
    "ResultComment": "Car in reseller stock"
  },
  {
    "TaskCode": "TP-20151231-001",
    "VIN": "1G2NW12E25M200155",
    "RFIDCode": "2234567890155",
    "GPS": "$GPGGA,121252.000,3937.3032,N,11611.6046,E,1,05,2.0,45.9,M,-5.7,M,,0000*77",
    "ScannedOn": "2015-12-09T13:47:30.05",
    "ResultStatus": "InStock",
    "ResultComment": "Car in reseller stock"
  },
  {
    "TaskCode": "TP-20151231-001",
    "VIN": "1G2NW12E25M200156",
    "RFIDCode": "2234567890156",
    "GPS": "$GPGGA,121252.000,3937.3032,N,11611.6046,E,1,05,2.0,45.9,M,-5.7,M,,0000*77",
    "ScannedOn": "2015-12-09T13:47:30.05",
    "ResultStatus": "InStock",
    "ResultComment": "Car in reseller stock"
  },
  {
    "TaskCode": "TP-20151231-001",
    "VIN": "1G2NW12E25M200157",
    "RFIDCode": "2234567890157",
    "GPS": "$GPGGA,121252.000,3937.3032,N,11611.6046,E,1,05,2.0,45.9,M,-5.7,M,,0000*77",
    "ScannedOn": "2015-12-09T13:47:30.05",
    "ResultStatus": "InStock",
    "ResultComment": "Car in reseller stock"
  },
  {
    "TaskCode": "TP-20151231-001",
    "VIN": "1G2NW12E25M200158",
    "RFIDCode": "2234567890158",
    "GPS": "$GPGGA,121252.000,3937.3032,N,11611.6046,E,1,05,2.0,45.9,M,-5.7,M,,0000*77",
    "ScannedOn": "2015-12-09T13:47:30.05",
    "ResultStatus": "InStock",
    "ResultComment": "Car in reseller stock"
  },
  {
    "TaskCode": "TP-20151231-001",
    "VIN": "1G2NW12E25M200159",
    "RFIDCode": "2234567890159",
    "GPS": "$GPGGA,121252.000,3937.3032,N,11611.6046,E,1,05,2.0,45.9,M,-5.7,M,,0000*77",
    "ScannedOn": "2015-12-09T13:47:30.05",
    "ResultStatus": "InStock",
    "ResultComment": "Car in reseller stock"
  },
  {
    "TaskCode": "TP-20151231-001",
    "VIN": "1G2NW12E25M200160",
    "RFIDCode": "2234567890160",
    "GPS": "$GPGGA,121252.000,3937.3032,N,11611.6046,E,1,05,2.0,45.9,M,-5.7,M,,0000*77",
    "ScannedOn": "2015-12-09T13:47:30.05",
    "ResultStatus": "InStock",
    "ResultComment": "Car in reseller stock"
  },
  {
    "TaskCode": "TP-20151231-001",
    "VIN": "1G2NW12E25M200161",
    "RFIDCode": "2234567890161",
    "GPS": "$GPGGA,121252.000,3937.3032,N,11611.6046,E,1,05,2.0,45.9,M,-5.7,M,,0000*77",
    "ScannedOn": "2015-12-09T13:47:30.05",
    "ResultStatus": "InStock",
    "ResultComment": "Car in reseller stock"
  },
  {
    "TaskCode": "TP-20151231-001",
    "VIN": "1G2NW12E25M200162",
    "RFIDCode": "2234567890162",
    "GPS": "$GPGGA,121252.000,3937.3032,N,11611.6046,E,1,05,2.0,45.9,M,-5.7,M,,0000*77",
    "ScannedOn": "2015-12-09T13:47:30.05",
    "ResultStatus": "InStock",
    "ResultComment": "Car in reseller stock"
  },
  {
    "TaskCode": "TP-20151231-001",
    "VIN": "1G2NW12E25M200163",
    "RFIDCode": "2234567890163",
    "GPS": "$GPGGA,121252.000,3937.3032,N,11611.6046,E,1,05,2.0,45.9,M,-5.7,M,,0000*77",
    "ScannedOn": "2015-12-09T13:47:30.05",
    "ResultStatus": "InStock",
    "ResultComment": "Car in reseller stock"
  },
  {
    "TaskCode": "TP-20151231-001",
    "VIN": "1G2NW12E25M200164",
    "RFIDCode": "2234567890164",
    "GPS": "$GPGGA,121252.000,3937.3032,N,11611.6046,E,1,05,2.0,45.9,M,-5.7,M,,0000*77",
    "ScannedOn": "2015-12-09T13:47:30.05",
    "ResultStatus": "InStock",
    "ResultComment": "Car in reseller stock"
  },
  {
    "TaskCode": "TP-20151231-001",
    "VIN": "1G2NW12E25M200165",
    "RFIDCode": "2234567890165",
    "GPS": "$GPGGA,121252.000,3937.3032,N,11611.6046,E,1,05,2.0,45.9,M,-5.7,M,,0000*77",
    "ScannedOn": "2015-12-09T13:47:30.05",
    "ResultStatus": "InStock",
    "ResultComment": "Car in reseller stock"
  },
  {
    "TaskCode": "TP-20151231-001",
    "VIN": "1G2NW12E25M200166",
    "RFIDCode": "2234567890166",
    "GPS": "$GPGGA,121252.000,3937.3032,N,11611.6046,E,1,05,2.0,45.9,M,-5.7,M,,0000*77",
    "ScannedOn": "2015-12-09T13:47:30.05",
    "ResultStatus": "InStock",
    "ResultComment": "Car in reseller stock"
  },
  {
    "TaskCode": "TP-20151231-001",
    "VIN": "1G2NW12E25M200167",
    "RFIDCode": "2234567890167",
    "GPS": "$GPGGA,121252.000,3937.3032,N,11611.6046,E,1,05,2.0,45.9,M,-5.7,M,,0000*77",
    "ScannedOn": "2015-12-09T13:47:30.05",
    "ResultStatus": "InStock",
    "ResultComment": "Car in reseller stock"
  },
  {
    "TaskCode": "TP-20151231-001",
    "VIN": "1G2NW12E25M200168",
    "RFIDCode": "2234567890168",
    "GPS": "$GPGGA,121252.000,3937.3032,N,11611.6046,E,1,05,2.0,45.9,M,-5.7,M,,0000*77",
    "ScannedOn": "2015-12-09T13:47:30.05",
    "ResultStatus": "InStock",
    "ResultComment": "Car in reseller stock"
  },
  {
    "TaskCode": "TP-20151231-001",
    "VIN": "1G2NW12E25M200169",
    "RFIDCode": "2234567890169",
    "GPS": "$GPGGA,121252.000,3937.3032,N,11611.6046,E,1,05,2.0,45.9,M,-5.7,M,,0000*77",
    "ScannedOn": "2015-12-09T13:47:30.05",
    "ResultStatus": "InStock",
    "ResultComment": "Car in reseller stock"
  },
  {
    "TaskCode": "TP-20151231-001",
    "VIN": "1G2NW12E25M200170",
    "RFIDCode": "2234567890170",
    "GPS": "$GPGGA,121252.000,3937.3032,N,11611.6046,E,1,05,2.0,45.9,M,-5.7,M,,0000*77",
    "ScannedOn": "2015-12-09T13:47:30.05",
    "ResultStatus": "InStock",
    "ResultComment": "Car in reseller stock"
  },
  {
    "TaskCode": "TP-20151231-001",
    "VIN": "1G2NW12E25M200171",
    "RFIDCode": "2234567890171",
    "GPS": "$GPGGA,121252.000,3937.3032,N,11611.6046,E,1,05,2.0,45.9,M,-5.7,M,,0000*77",
    "ScannedOn": "2015-12-09T13:47:30.05",
    "ResultStatus": "InStock",
    "ResultComment": "Car in reseller stock"
  },
  {
    "TaskCode": "TP-20151231-001",
    "VIN": "1G2NW12E25M200172",
    "RFIDCode": "2234567890172",
    "GPS": "$GPGGA,121252.000,3937.3032,N,11611.6046,E,1,05,2.0,45.9,M,-5.7,M,,0000*77",
    "ScannedOn": "2015-12-09T13:47:30.05",
    "ResultStatus": "InStock",
    "ResultComment": "Car in reseller stock"
  },
  {
    "TaskCode": "TP-20151231-001",
    "VIN": "1G2NW12E25M200173",
    "RFIDCode": "2234567890173",
    "GPS": "$GPGGA,121252.000,3937.3032,N,11611.6046,E,1,05,2.0,45.9,M,-5.7,M,,0000*77",
    "ScannedOn": "2015-12-09T13:47:30.05",
    "ResultStatus": "InStock",
    "ResultComment": "Car in reseller stock"
  },
  {
    "TaskCode": "TP-20151231-001",
    "VIN": "1G2NW12E25M200174",
    "RFIDCode": "2234567890174",
    "GPS": "$GPGGA,121252.000,3937.3032,N,11611.6046,E,1,05,2.0,45.9,M,-5.7,M,,0000*77",
    "ScannedOn": "2015-12-09T13:47:30.05",
    "ResultStatus": "InStock",
    "ResultComment": "Car in reseller stock"
  },
  {
    "TaskCode": "TP-20151231-001",
    "VIN": "1G2NW12E25M200175",
    "RFIDCode": "2234567890175",
    "GPS": "$GPGGA,121252.000,3937.3032,N,11611.6046,E,1,05,2.0,45.9,M,-5.7,M,,0000*77",
    "ScannedOn": "2015-12-09T13:47:30.05",
    "ResultStatus": "InStock",
    "ResultComment": "Car in reseller stock"
  },
  {
    "TaskCode": "TP-20151231-001",
    "VIN": "1G2NW12E25M200176",
    "RFIDCode": "2234567890176",
    "GPS": "$GPGGA,121252.000,3937.3032,N,11611.6046,E,1,05,2.0,45.9,M,-5.7,M,,0000*77",
    "ScannedOn": "2015-12-09T13:47:30.05",
    "ResultStatus": "InStock",
    "ResultComment": "Car in reseller stock"
  },
  {
    "TaskCode": "TP-20151231-001",
    "VIN": "1G2NW12E25M200177",
    "RFIDCode": "2234567890177",
    "GPS": "$GPGGA,121252.000,3937.3032,N,11611.6046,E,1,05,2.0,45.9,M,-5.7,M,,0000*77",
    "ScannedOn": "2015-12-09T13:47:30.05",
    "ResultStatus": "InStock",
    "ResultComment": "Car in reseller stock"
  },
  {
    "TaskCode": "TP-20151231-001",
    "VIN": "1G2NW12E25M200178",
    "RFIDCode": "2234567890178",
    "GPS": "$GPGGA,121252.000,3937.3032,N,11611.6046,E,1,05,2.0,45.9,M,-5.7,M,,0000*77",
    "ScannedOn": "2015-12-09T13:47:30.05",
    "ResultStatus": "InStock",
    "ResultComment": "Car in reseller stock"
  },
  {
    "TaskCode": "TP-20151231-001",
    "VIN": "1G2NW12E25M200179",
    "RFIDCode": "2234567890179",
    "GPS": "$GPGGA,121252.000,3937.3032,N,11611.6046,E,1,05,2.0,45.9,M,-5.7,M,,0000*77",
    "ScannedOn": "2015-12-09T13:47:30.05",
    "ResultStatus": "InStock",
    "ResultComment": "Car in reseller stock"
  },
  {
    "TaskCode": "TP-20151231-001",
    "VIN": "1G2NW12E25M200180",
    "RFIDCode": "2234567890180",
    "GPS": "$GPGGA,121252.000,3937.3032,N,11611.6046,E,1,05,2.0,45.9,M,-5.7,M,,0000*77",
    "ScannedOn": "2015-12-09T13:47:30.05",
    "ResultStatus": "InStock",
    "ResultComment": "Car in reseller stock"
  },
  {
    "TaskCode": "TP-20151231-001",
    "VIN": "1G2NW12E25M200181",
    "RFIDCode": "2234567890181",
    "GPS": "$GPGGA,121252.000,3937.3032,N,11611.6046,E,1,05,2.0,45.9,M,-5.7,M,,0000*77",
    "ScannedOn": "2015-12-09T13:47:30.05",
    "ResultStatus": "InStock",
    "ResultComment": "Car in reseller stock"
  },
  {
    "TaskCode": "TP-20151231-001",
    "VIN": "1G2NW12E25M200182",
    "RFIDCode": "2234567890182",
    "GPS": "$GPGGA,121252.000,3937.3032,N,11611.6046,E,1,05,2.0,45.9,M,-5.7,M,,0000*77",
    "ScannedOn": "2015-12-09T13:47:30.05",
    "ResultStatus": "InStock",
    "ResultComment": "Car in reseller stock"
  },
  {
    "TaskCode": "TP-20151231-001",
    "VIN": "1G2NW12E25M200183",
    "RFIDCode": "2234567890183",
    "GPS": "$GPGGA,121252.000,3937.3032,N,11611.6046,E,1,05,2.0,45.9,M,-5.7,M,,0000*77",
    "ScannedOn": "2015-12-09T13:47:30.05",
    "ResultStatus": "InStock",
    "ResultComment": "Car in reseller stock"
  },
  {
    "TaskCode": "TP-20151231-001",
    "VIN": "1G2NW12E25M200184",
    "RFIDCode": "2234567890184",
    "GPS": "$GPGGA,121252.000,3937.3032,N,11611.6046,E,1,05,2.0,45.9,M,-5.7,M,,0000*77",
    "ScannedOn": "2015-12-09T13:47:30.05",
    "ResultStatus": "InStock",
    "ResultComment": "Car in reseller stock"
  },
  {
    "TaskCode": "TP-20151231-001",
    "VIN": "1G2NW12E25M200185",
    "RFIDCode": "2234567890185",
    "GPS": "$GPGGA,121252.000,3937.3032,N,11611.6046,E,1,05,2.0,45.9,M,-5.7,M,,0000*77",
    "ScannedOn": "2015-12-09T13:47:30.05",
    "ResultStatus": "InStock",
    "ResultComment": "Car in reseller stock"
  },
  {
    "TaskCode": "TP-20151231-001",
    "VIN": "1G2NW12E25M200186",
    "RFIDCode": "2234567890186",
    "GPS": "$GPGGA,121252.000,3937.3032,N,11611.6046,E,1,05,2.0,45.9,M,-5.7,M,,0000*77",
    "ScannedOn": "2015-12-09T13:47:30.05",
    "ResultStatus": "InStock",
    "ResultComment": "Car in reseller stock"
  },
  {
    "TaskCode": "TP-20151231-001",
    "VIN": "1G2NW12E25M200187",
    "RFIDCode": "2234567890187",
    "GPS": "$GPGGA,121252.000,3937.3032,N,11611.6046,E,1,05,2.0,45.9,M,-5.7,M,,0000*77",
    "ScannedOn": "2015-12-09T13:47:30.05",
    "ResultStatus": "InStock",
    "ResultComment": "Car in reseller stock"
  },
  {
    "TaskCode": "TP-20151231-001",
    "VIN": "1G2NW12E25M200188",
    "RFIDCode": "2234567890188",
    "GPS": "$GPGGA,121252.000,3937.3032,N,11611.6046,E,1,05,2.0,45.9,M,-5.7,M,,0000*77",
    "ScannedOn": "2015-12-09T13:47:30.05",
    "ResultStatus": "InStock",
    "ResultComment": "Car in reseller stock"
  },
  {
    "TaskCode": "TP-20151231-001",
    "VIN": "1G2NW12E25M200189",
    "RFIDCode": "2234567890189",
    "GPS": "$GPGGA,121252.000,3937.3032,N,11611.6046,E,1,05,2.0,45.9,M,-5.7,M,,0000*77",
    "ScannedOn": "2015-12-09T13:47:30.05",
    "ResultStatus": "InStock",
    "ResultComment": "Car in reseller stock"
  },
  {
    "TaskCode": "TP-20151231-001",
    "VIN": "1G2NW12E25M200190",
